{
	"line": "164 - Jardim Camburi/Forte São João",
	"bound_to": "Forte São João",
	"points": [
	{
		"type": "turn",
		"dir": "straight",
		"direction": "Segue pela",
		"address": "R. Osvaldo Bastos de Souza Freitas"
	},
	{
		"type": "turn",
		"dir": "right",
		"direction": "Curva à direita",
		"address": "Av. dos Expedicionários"
	},
	{
		"type": "bus-stop",
		"number": 8005,
		"address": "Av Dos Expedicionários",
		"reference": "Em frente ao condominio Porto Rotondo n645 - Atlantica Ville",
		"hood": "Jardim Camburi"
	},
	{
		"type": "bus-stop",
		"number": 8006,
		"address": "Av Dos Expedicionários",
		"reference": "Em frente ao condominio Acapulco",
		"hood": "Jardim Camburi"
	},
	{
		"type": "bus-stop",
		"number": 8007,
		"address": "Av Dos Expedicionários",
		"reference": "Em frente ao Ed. nº 295",
		"hood": "Jardim Camburi"
	},
	{
		"type": "bus-stop",
		"number": 8000,
		"address": "Av Dos Expedicionários",
		"reference": "Em frente ao nº 1151",
		"hood": "Jardim Camburi"
	},
	{
		"type": "bus-stop",
		"number": 8001,
		"address": "Av Dos Expedicionários",
		"reference": "Defronte ao Ed Marville nº B125 - Atlantica Ville",
		"hood": "Jardim Camburi"
	},
	{
		"type": "bus-stop",
		"number": 8002,
		"address": "Av Dos Expedicionários",
		"reference": "Trailer do Fabinho - Ed. Algarue - Atlantica Ville",
		"hood": "Jardim Camburi"
	},
	{
		"type": "turn",
		"dir": "left",
		"direction": "Curva à esquerda",
		"address": "R. Osvaldo Bastos de Souza Freitas"
	},
	{
		"type": "bus-stop",
		"number": 8003,
		"address": "Av Dos Expedicionários",
		"reference": "Em frente ao Prqe. Botânico da Vale Jardim Camburi - Atlantica Ville",
		"hood": "Jardim Camburi"
	},
	{
		"type": "turn",
		"dir": "soft-right",
		"direction": "Leve curva à direita",
		"address": "Av. Manoel Nunes do Amaral Pereira"
	},
	{
		"type": "poi",
		"label": "Dog Hotel",
		"category": "Abrigo para animais"
	},
	{
		"type": "turn",
		"dir": "right",
		"direction": "Curva à direita",
		"address": "R. Ruy Pinto Bandeira"
	},
	{
		"type": "poi",
		"label": "Praça da FISK",
		"category": "Praça"
	},
	{
		"type": "turn",
		"dir": "right",
		"direction": "Curva à direita",
		"address": "R. José Celso Cláudio"
	},
	{
		"type": "bus-stop",
		"number": 8013,
		"address": "Rua José Celso Cláudio",
		"reference": "Em frente a loja Pepeu Tintas nº2",
		"hood": "Jardim Camburi"
	},
	{
		"type": "poi",
		"label": "Pepeu Tintas",
		"category": "Loja"
	},
	{
		"type": "turn",
		"dir": "left",
		"direction": "Curva à esquerda",
		"address": "R. Italina Pereira Motta"
	},
	{
		"type": "street-view",
		"coords": {
			"lat": "-20.259904",
			"lon": "-40.263912"
		},
		"heading": 330,
		"fov": ""
	},
	{
		"type": "poi",
		"label": "Disk Pizza Paulista",
		"category": "Pizzaria"
	},
	{
		"type": "poi",
		"label": "Come Come",
		"category": "Restaurante"
	},
	{
		"type": "bus-stop",
		"number": 8015,
		"address": "R. Italina Pereira Motta",
		"reference": "Esquina com a Rua Alcides Viana. Em frente a òtica Victória nº144",
		"hood": "Jardim Camburi"
	},
	{
		"type": "poi",
		"label": "Banestes",
		"category": "Agência bancária"
	},
	{
		"type": "street-view",
		"coords": {
			"lat": "-20.257590",
			"lon": "-40.266585"
		},
		"heading": 330,
		"fov": 50
	},
	{
		"type": "bus-stop",
		"number": 8018,
		"address": "R. Italina Pereira Motta",
		"reference": "Shopping Plaza",
		"hood": "Jardim Camburi"
	},
	{
		"type": "poi",
		"label": "Shopping Plaza",
		"category": "Centro Comercial"
	},
	{
		"type": "turn",
		"dir": "right",
		"direction": "Curva à direita",
		"address": "R. Italina Pereira Motta"
	},
	{
		"type": "poi",
		"label": "Primeira Igreja Batista em Jardim Camburi",
		"category": "Igreja"
	},
	{
		"type": "poi",
		"label": "Dallas Embalagens",
		"category": "Loja"
	},
	{
		"type": "bus-stop",
		"number": 8026,
		"address": "Rua Italina Pereira Motta",
		"reference": "Em frente a Super Casa Mat. de Construção",
		"hood": "Jardim Camburi"
	},
	{
		"type": "street-view",
		"coords": {
			"lat": "-20.25562298425089",
			"lon": "-40.26706341505053"
		},
		"heading": "-10",
		"fov": 50
	},
	{
		"type": "poi",
		"label": "Praça da Igreja Católica",
		"category": "Praça"
	},
	{
		"type": "turn",
		"dir": "left",
		"direction": "Curva à esquerda",
		"address": "R. Alcino Pereira Neto"
	},
	{
		"type": "poi",
		"label": "40 Sabores",
		"category": "Sorveteria"
	},
	{
		"type": "poi",
		"label": "Farmácia Santa Lúcia",
		"category": "Loja"
	},
	{
		"type": "turn",
		"dir": "right",
		"direction": "Curva à direita",
		"address": "R. Augusto Emílio Estelita Lins"
	},
	{
		"type": "poi",
		"label": "Pão Chic",
		"category": "Padaria"
	},
	{
		"type": "bus-stop",
		"number": 8028,
		"address": "Av Augusto Emílio Estelita Lins",
		"reference": "Ed. Vila Verona n 150",
		"hood": "Jardim Camburi"
	},
	{
		"type": "poi",
		"label": "Conde do Sanduíche",
		"category": "Lanchonete"
	},
	{
		"type": "poi",
		"label": "Fraternidade Espírita de Jardim Camburi (Fejac)",
		"category": "Centro Espírita"
	},
	{
		"type": "turn",
		"dir": "left",
		"direction": "Curva à esquerda",
		"address": "R. Victorino Cardoso"
	},
	{
		"type": "bus-stop",
		"number": 8031,
		"address": "Rua Victorino Cardoso",
		"reference": "Escola Municipal - ASFA",
		"hood": "Jardim Camburi"
	},
	{
		"type": "poi",
		"label": "Escola Municipal ASFA",
		"category": "Escola de Ensino Fundamental"
	},
	{
		"type": "poi",
		"label": "Palladares",
		"category": "Restaurante"
	},
	{
		"type": "turn",
		"dir": "right",
		"direction": "Curva à direita",
		"address": "Av. Dr. Herwan Modenese Wanderley"
	},
	{
		"type": "bus-stop",
		"number": 8032,
		"address": "Av Doutor Herwan Modenese Wanderley",
		"reference": "De fronte a Estácio de Sá / Esquna com a rua Esmeria Barros Deorce.",
		"hood": "Jardim Camburi"
	},
	{
		"type": "poi",
		"label": "Faculdade Estácio de Sá",
		"category": "Centro universitário"
	},
	{
		"type": "turn",
		"dir": "soft-left",
		"direction": "Curva suave à esquerda",
		"address": "Av. Isaac Lopes de Rubim"
	},
	{
		"type": "poi",
		"label": "Praça Nildes Mendes Rangel",
		"category": "Praça"
	},
	{
		"type": "turn",
		"dir": "right",
		"direction": "Curva à direita",
		"address": "Av. Engenheiro Charles Bitran"
	},
	{
		"type": "turn",
		"dir": "left",
		"direction": "Curva à esquerda",
		"address": "Av. Governador Eurico Rezende"
	},
	{
		"type": "bus-stop",
		"number": 8060,
		"address": "Av Governador Eurico Rezende",
		"reference": "Em frente a um lote vago.",
		"hood": "Jardim Camburi"
	},
	{
		"type": "turn",
		"dir": "left",
		"direction": "Curva à esquerda",
		"address": "R. Sérgio Nasser"
	},
	{
		"type": "turn",
		"dir": "left",
		"direction": "Curva à esquerda",
		"address": "R. Eugênio Pacheco de Queiroz"
	},
	{
		"type": "bus-stop",
		"number": 8057,
		"address": "Av Eugênio Pacheco De Queiroz",
		"reference": "Defronte a Escola",
		"hood": "Jardim Camburi"
	},
	{
		"type": "poi",
		"label": "EEEM \"Prof. José Renato da Costa Pacheco\"",
		"category": "Escola"
	},
	{
		"type": "turn",
		"dir": "straight",
		"direction": "Segue em frente",
		"address": "Av. Isaac Lopes de Rubim"
	},
	{
		"type": "turn",
		"dir": "right",
		"direction": "Curva à direita",
		"address": "R. Raul de Oliveira Neves"
	},
	{
		"type": "bus-stop",
		"number": 8033,
		"address": "Av Raul Oliveira Neves",
		"reference": "Av Raul Oliveira Neves",
		"hood": "Jardim Camburi"
	},
	{
		"type": "turn",
		"dir": "left",
		"direction": "Curva à esquerda",
		"address": "R. Teófilo Costa"
	},
	{
		"type": "bus-stop",
		"number": 8034,
		"address": "Rua Theófilo Costa",
		"reference": "Ed. Lagoa Juparanã n 160",
		"hood": "Jardim Camburi"
	},
	{
		"type": "poi",
		"label": "Shopping Norte Sul",
		"category": "Shopping Center"
	},
	{
		"type": "turn",
		"dir": "left",
		"direction": "Curva à esquerda",
		"address": "Av. Armando Duarte Rabello"
	},
	{
		"type": "bus-stop",
		"number": 8036,
		"address": "Av Armando Duarte Rabello",
		"reference": "Em frente ao nº 144",
		"hood": "Jardim Camburi"
	},
	{
		"type": "poi",
		"label": "Cerimonial Porto Bianco",
		"category": "Espaço de Eventos"
	},
	{
		"type": "street-view",
		"coords": {
			"lat": "-20.251723",
			"lon": "-40.26997"
		},
		"heading": 110,
		"fov": 70
	},
	{
		"type": "poi",
		"label": "Banco do Brasil",
		"category": "Agência Bancária"
	},
	{
		"type": "turn",
		"dir": "right",
		"direction": "Curva à direita",
		"address": "R. Carlos Martins"
	},
	{
		"type": "poi",
		"label": "SICOOB",
		"category": "Agência Bancária"
	},
	{
		"type": "bus-stop",
		"number": 8037,
		"address": "Rua Carlos Martins",
		"reference": "",
		"hood": "Jardim Camburi"
	},
	{
		"type": "poi",
		"label": "Toys & Kids",
		"category": "Espaço de Eventos"
	},
	{
		"type": "poi",
		"label": "Globo Farma",
		"category": "Drogaria"
	},
	{
		"type": "bus-stop",
		"number": 8039,
		"address": "Rua Carlos Martins",
		"reference": "Em frente ao Bar e Restaurante Coronel Picanha",
		"hood": "Jardim Camburi"
	},
	{
		"type": "poi",
		"label": "Unidade de Saúde Raul Oliveira Nunes",
		"category": "Centro Médico"
	},
	{
		"type": "poi",
		"label": "Policlínica Jardim Camburi",
		"category": "Centro Médico"
	},
	{
		"type": "poi",
		"label": "Blockbuster/Americanas Express",
		"category": "Loja de Vídeo"
	},
	{
		"type": "poi",
		"label": "Arte Mimo",
		"category": "Escola Primária"
	},
	{
		"type": "bus-stop",
		"number": 8041,
		"address": "Rua Carlos Martins",
		"reference": "Em frente a drogaria Plantão",
		"hood": "Jardim Camburi"
	},
	{
		"type": "poi",
		"label": "CNA",
		"category": "Escola de idiomas"
	},
	{
		"type": "bus-stop",
		"number": 8043,
		"address": "Rua Carlos Martins",
		"reference": "Em frente ao nº 945",
		"hood": "Jardim Camburi"
	},
	{
		"type": "poi",
		"label": "Globo Fórmula",
		"category": "Drogaria"
	},
	{
		"type": "poi",
		"label": "Cerimonial Lago de Garda",
		"category": "Espaço de Eventos"
	},
	{
		"type": "poi",
		"label": "CCAA",
		"category": "Escola de Idiomas"
	},
	{
		"type": "bus-stop",
		"number": 8045,
		"address": "Rua Carlos Martins",
		"reference": "Obra da Garra - De fronte ao nº 626, Spetin Lanches",
		"hood": "Jardim Camburi"
	},
	{
		"type": "poi",
		"label": "Laboratório Deomar Bittencourt",
		"category": "Laboratório"
	},
	{
		"type": "poi",
		"label": "Rock Burger",
		"category": "Lanchonete"
	},
	{
		"type": "bus-stop",
		"number": 8047,
		"address": "Rua Carlos Martins",
		"reference": "Em frente ao nº 325 - Ed. Capitania",
		"hood": "Jardim Camburi"
	},
	{
		"type": "poi",
		"label": "Delícias do Trigo",
		"category": "Padaria"
	},
	{
		"type": "poi",
		"label": "Escola São Bernardo (ESB)",
		"category": "Escola de Primária"
	},
	{
		"type": "bus-stop",
		"number": 8049,
		"address": "Rua Carlos Martins",
		"reference": "Esq. c/ entrada de serviço do Hotel Canto do Sol",
		"hood": "Jardim Camburi"
	},
	{
		"type": "turn",
		"dir": "right",
		"direction": "Curva à direita",
		"address": "Av. Fernando Ferrari"
	},
	{
		"type": "street-view",
		"coords": {
			"lat": "-20.26668",
			"lon": "-40.26955"
		},
		"heading": 300,
		"fov": 90
	},
	{
		"type": "poi",
		"label": "Hotel Canto do Sol",
		"category": "Hotel"
	},
	{
		"type": "poi",
		"label": "Praia de Camburi",
		"category": "Praia"
	},
	{
		"type": "bus-stop",
		"number": 6025,
		"address": "Av Dante Michelini",
		"reference": "Defronte ao quiosque 25 - Luí",
		"hood": "Aeroporto"
	},
	{
		"type": "bus-stop",
		"number": 6073,
		"address": "Avn Dante Michelini",
		"reference": "Em frente ao pier de Camburi.",
		"hood": "Aeroporto"
	},
	{
		"type": "bus-stop",
		"number": 6042,
		"address": "Avn Dante Michelini",
		"reference": "Ao lado da antiga Boate Megazoom",
		"hood": "Aeroporto"
	},
	{
		"type": "bus-stop",
		"number": 6081,
		"address": "Av Dante Michelini",
		"reference": "Ed. Palazzo de Veneza n 2401(Palazzo Verona)",
		"hood": "Mata Da Praia"
	},
	{
		"type": "bus-stop",
		"number": 6082,
		"address": "Av Dante Michelini",
		"reference": "Ed Praia da Enseada nº2097, próx. à esquina com a Rua Antônio Borges",
		"hood": "Mata Da Praia"
	},
	{
		"type": "bus-stop",
		"number": 6085,
		"address": "Av Dante Michelini",
		"reference": "Em frente ao Ed. Praia Park nº 1601. (La Residence)",
		"hood": "Mata Da Praia"
	},
	{
		"type": "bus-stop",
		"number": 6079,
		"address": "Av Dante Michelini",
		"reference": "Baia Banco Itau - Próx. a esquina com a Rua Aristóbulo B. Leão",
		"hood": "Jardim Da Penha"
	},
	{
		"type": "turn",
		"dir": "right",
		"direction": "Curva à direita",
		"address": "R. Aristóbulo Barbosa Leão"
	},
	{
		"type": "bus-stop",
		"number": 6037,
		"address": "Rua Aristóbulo Barbosa Leão",
		"reference": "Em frente a Padaria Empório do Trigo.",
		"hood": "Jardim Da Penha"
	},
	{
		"type": "bus-stop",
		"number": 6035,
		"address": "Rua Aristóbulo Barbosa Leão",
		"reference": "Esquina Rua Caetano Vello / Em frente ao Rio Grande do Sul n°655",
		"hood": "Mata Da Praia"
	},
	{
		"type": "turn",
		"dir": "left",
		"direction": "Curva à esquerda",
		"address": "Av. Hugo Viola"
	},
	{
		"type": "bus-stop",
		"number": 6034,
		"address": "Av Hugo Viola",
		"reference": "Clínica Jardim da Penha n°931",
		"hood": "Mata Da Praia"
	},
	{
		"type": "turn",
		"dir": "right",
		"direction": "Curva à direita",
		"address": "Av. Alziro Zarur"
	},
	{
		"type": "bus-stop",
		"number": 6031,
		"address": "Av Alziro Zarur",
		"reference": "Condomínio / Esquina com a Rua Gensérico Encarnação.",
		"hood": "Mata Da Praia"
	},
	{
		"type": "bus-stop",
		"number": 6030,
		"address": "Av Alziro Zarur",
		"reference": "Galeria Ed. Cesar Resende n°438",
		"hood": "Mata Da Praia"
	},
	{
		"type": "turn",
		"dir": "left",
		"direction": "Curva à esquerda",
		"address": "Av. Fernando Ferrari"
	},
	{
		"type": "street-view",
		"coords": {
			"lat": "-20.279259",
			"lon": "-40.301346"
		},
		"heading": 210,
		"fov": 90
	},
	{
		"type": "poi",
		"label": "Universidade Federal do Espírito Santo (Ufes)",
		"category": "Universidade"
	},
	{
		"type": "bus-stop",
		"number": 6165,
		"address": "Av Fernando Ferrari",
		"reference": "Baia defronte ao Cartório Amorim",
		"hood": "Goiabeiras"
	},
	{
		"type": "street-view",
		"coords": {
			"lat": "-20.2851274",
			"lon": "-40.30270724"
		},
		"heading": 210,
		"fov": 120
	},
	{
		"type": "poi",
		"label": "Ponto da Passagem",
		"category": "Ponte"
	},
	{
		"type": "bus-stop",
		"number": 4022,
		"address": "Rua Dona Maria Rosa",
		"reference": "Hotel Embaixador n°200",
		"hood": "Andorinhas"
	},
	{
		"type": "turn",
		"dir": "soft-right",
		"direction": "Curva suave à direita",
		"address": "R. Dona Maria Rosa"
	},
	{
		"type": "bus-stop",
		"number": 4023,
		"address": "Rua Dona Maria Rosa",
		"reference": "Box 10 Auto Center - Posto de Gasolina",
		"hood": "Andorinhas"
	},
	{
		"type": "turn",
		"dir": "soft-right",
		"direction": "Curva suave à direita",
		"address": "Av. Maruípe"
	},
	{
		"type": "bus-stop",
		"number": 4024,
		"address": "Av Maruípe",
		"reference": "Em frente ao supermercado Pontes Cordeiro",
		"hood": "Santa Martha"
	},
	{
		"type": "bus-stop",
		"number": 4029,
		"address": "Av Maruípe",
		"reference": "Loja Cartoon Papelaria e Informática",
		"hood": "São Cristóvão"
	},
	{
		"type": "bus-stop",
		"number": 4031,
		"address": "Av Maruípe",
		"reference": "em frente a residencia nº 1605",
		"hood": "São Cristóvão"
	},
	{
		"type": "bus-stop",
		"number": 4056,
		"address": "Av Marechal Campos",
		"reference": "Em frente ao Hospital Santa Rita/ hemocentro",
		"hood": "Santa Cecília"
	},
	{
		"type": "turn",
		"dir": "left",
		"direction": "Curva à esquerda",
		"address": "Av. Marechal Campos"
	},
	{
		"type": "bus-stop",
		"number": 4058,
		"address": "Av Marechal Campos",
		"reference": "Defronte a Newlamps n 1378",
		"hood": "Santos Dumont"
	},
	{
		"type": "bus-stop",
		"number": 3038,
		"address": "Av Marechal Campos",
		"reference": "Em frente ao n°925.",
		"hood": "Bairro de Lourdes"
	},
	{
		"type": "bus-stop",
		"number": 3039,
		"address": "Av Marechal Campos",
		"reference": "Em frente ao Salão Marçal",
		"hood": "Bairro de Lourdes"
	},
	{
		"type": "bus-stop",
		"number": 3041,
		"address": "Av Marechal Campos",
		"reference": "Em frente a Nova Vitória n 329",
		"hood": "Bairro de Lourdes"
	},
	{
		"type": "bus-stop",
		"number": 3044,
		"address": "Av Marechal Campos",
		"reference": "Em frente a Drogaria e Perfumaria Rede Certa n 69.",
		"hood": "Nazareth"
	},
	{
		"type": "turn",
		"dir": "right",
		"direction": "Curva à direita",
		"address": "Av. Vitória"
	},
	{
		"type": "bus-stop",
		"number": 3011,
		"address": "Av Vitória",
		"reference": "Em frente a Cohab nº2045",
		"hood": "Nazareth"
	},
	{
		"type": "bus-stop",
		"number": 3014,
		"address": "Av Vitória",
		"reference": "Em frente ao IFES",
		"hood": "Jucutuquara"
	},
	{
		"type": "bus-stop",
		"number": 3015,
		"address": "Av Vitória",
		"reference": "Praça de Jucutuquara",
		"hood": "Jucutuquara"
	},
	{
		"type": "bus-stop",
		"number": 3014,
		"address": "Av Vitória",
		"reference": "Entrada do Bairro Romão",
		"hood": "Romão"
	},
	{
		"type": "bus-stop",
		"number": 1002,
		"address": "Av Vitória",
		"reference": "Em frente a antiga Grafitusa",
		"hood": "Forte São João"
	}]
}
